{
"type": "FeatureCollection",
"name": "pracas_temp",
"crs": { "type": "name", "properties": { "name": "urn:ogc:def:crs:OGC:1.3:CRS84" } },
"features": [
{ "type": "Feature", "properties": { "cod": 1, "tipo": "Praça", "nome": "Arno Bauer", "imagem": "http://res.cloudinary.com/dieqpmcoc/image/upload/v1516809317/20101_xzxgmo.jpg", "endereco": "Rua Gil Stein Ferreira,380", "bairro": "Centro", "lei": "1500/76", "equipamentos": "estares, elemento artístico", "observacoes": "Anexo ao Palacio Marcos Konder e Casa da Cultura", "longitude": -48.661, "latitude": -26.9074 }, "geometry": { "type": "Point", "coordinates": [ -48.661, -26.9074 ] } },
{ "type": "Feature", "properties": { "cod": 2, "tipo": "Praça", "nome": "Félix Busso Asseburg", "imagem": "http://res.cloudinary.com/dieqpmcoc/image/upload/v1516809317/20102_sizmj9.jpg", "endereco": "Av Min. Victor Konder", "bairro": "Centro", "lei": "28/48", "equipamentos": "estares", "observacoes": "Mercado Público", "longitude": -48.6544, "latitude": -26.9064 }, "geometry": { "type": "Point", "coordinates": [ -48.6544, -26.9064 ] } },
{ "type": "Feature", "properties": { "cod": 3, "tipo": "Jardim", "nome": "Bruno Malburg", "imagem": "http://res.cloudinary.com/dieqpmcoc/image/upload/v1516809316/20103_poeeik.jpg", "endereco": "Rua Hercílio Luz", "bairro": "Centro", "lei": null, "equipamentos": "estares, área verde, elemento artístico ", "observacoes": "Fundos Igreja Imaculada Conceição", "longitude": -48.6565, "latitude": -26.9052 }, "geometry": { "type": "Point", "coordinates": [ -48.6565, -26.9052 ] } },
{ "type": "Feature", "properties": { "cod": 4, "tipo": "Marco", "nome": "Carlos Roberto da Silva - Marco Rotário", "imagem": "http://res.cloudinary.com/dieqpmcoc/image/upload/v1516809316/20104_cmvngu.jpg", "endereco": "Av. Cel. Marcos Konder c/ Av. Joca Brandão", "bairro": "Centro", "lei": "2903/94", "equipamentos": null, "observacoes": "Proximo ao Edificio Liberty", "longitude": -48.6594, "latitude": -26.9124 }, "geometry": { "type": "Point", "coordinates": [ -48.6594, -26.9124 ] } },
{ "type": "Feature", "properties": { "cod": 5, "tipo": "Praça", "nome": "Dr. Ivo Stein Ferreira", "imagem": "http://res.cloudinary.com/dieqpmcoc/image/upload/v1516809317/20105_rebvih.jpg", "endereco": "Av. Cel. Marcos Konder c/ Rua João Bauer", "bairro": "Centro", "lei": "932/69", "equipamentos": "estares, área verde", "observacoes": null, "longitude": -48.6599, "latitude": -26.9116 }, "geometry": { "type": "Point", "coordinates": [ -48.6599, -26.9116 ] } },
{ "type": "Feature", "properties": { "cod": 8, "tipo": "Praça", "nome": "Governador Irineu Bornhausen", "imagem": "http://res.cloudinary.com/dieqpmcoc/image/upload/v1516809317/20108_zu6yok.jpg", "endereco": "Av. Cel. Marcos Konder c/ Rua Brusque", "bairro": "Centro", "lei": "226/56", "equipamentos": "playground, mesa de jogos, estares, área verde, elemento artístico", "observacoes": "Em frente da Igreja Matriz", "longitude": -48.6624, "latitude": -26.9073 }, "geometry": { "type": "Point", "coordinates": [ -48.6624, -26.9073 ] } },
{ "type": "Feature", "properties": { "cod": 9, "tipo": "Jardim", "nome": "Pio XII - Jardim e Oratório N. Sra. de Fátima", "imagem": "http://res.cloudinary.com/dieqpmcoc/image/upload/v1516809317/20110_om5ska.jpg", "endereco": "Av. Cel. Marcos Konder c/ Rua Brusque", "bairro": "Centro", "lei": "475/62", "equipamentos": "estares, área verde, elemento artístico", "observacoes": "Ao lado da Igreja Matriz", "longitude": -48.6617, "latitude": -26.9072 }, "geometry": { "type": "Point", "coordinates": [ -48.6617, -26.9072 ] } },
{ "type": "Feature", "properties": { "cod": 10, "tipo": "Praça", "nome": "Jacob Bauer", "imagem": "http://res.cloudinary.com/dieqpmcoc/image/upload/v1516809318/20111_dcb4n7.jpg", "endereco": "Rua Jorge Mattos c/ Rua Armando G. Barbosa", "bairro": "Centro", "lei": "1694/79", "equipamentos": "academia, mesa de jogos, estares", "observacoes": null, "longitude": -48.6655, "latitude": -26.9155 }, "geometry": { "type": "Point", "coordinates": [ -48.6655, -26.9155 ] } },
{ "type": "Feature", "properties": { "cod": 11, "tipo": "Praça", "nome": "Pedro Paulo Ostermann", "imagem": "http://res.cloudinary.com/dieqpmcoc/image/upload/v1516809317/20112_s55py4.jpg", "endereco": "Rua Anita garibaldi c/ Rua Juventino Linhares", "bairro": "Centro", "lei": "3542/00", "equipamentos": null, "observacoes": null, "longitude": -48.6664, "latitude": -26.9091 }, "geometry": { "type": "Point", "coordinates": [ -48.6664, -26.9091 ] } },
{ "type": "Feature", "properties": { "cod": 12, "tipo": "Praça", "nome": "Vidal Ramos - Praça", "imagem": "http://res.cloudinary.com/dieqpmcoc/image/upload/v1516809317/20113_sszy2p.jpg", "endereco": "Rua Hercílio Luz c/ Rua Lauro Müller", "bairro": "Centro", "lei": null, "equipamentos": "estares, área verde, elemento artístico", "observacoes": null, "longitude": -48.6555, "latitude": -26.9048 }, "geometry": { "type": "Point", "coordinates": [ -48.6555, -26.9048 ] } },
{ "type": "Feature", "properties": { "cod": 14, "tipo": "Praça", "nome": "Ver. Valdeci Frontino da Cunha", "imagem": "http://res.cloudinary.com/dieqpmcoc/image/upload/v1516809317/20202_dzjqwx.jpg", "endereco": "Rua Côn. Tomaz Fontes c/ Av. Cel. Eugênio Muller", "bairro": "Centro", "lei": "2625/91", "equipamentos": null, "observacoes": "Atual Porto - APM Terminals   (praça  inexistente)", "longitude": -48.6613, "latitude": -26.9025 }, "geometry": { "type": "Point", "coordinates": [ -48.6613, -26.9025 ] } },
{ "type": "Feature", "properties": { "cod": 15, "tipo": "Praça", "nome": "Manoel Sebastião Tavares", "imagem": "http://res.cloudinary.com/dieqpmcoc/image/upload/v1516809318/20203_gwhgtv.jpg", "endereco": "Ruas Heitor Liberado e Benjamin Franklin Pereira", "bairro": "São João", "lei": "6703/16", "equipamentos": "área verde", "observacoes": "Anexo ao Supermercado Bistek", "longitude": -48.6728, "latitude": -26.9067 }, "geometry": { "type": "Point", "coordinates": [ -48.6728, -26.9067 ] } },
{ "type": "Feature", "properties": { "cod": 16, "tipo": "Praça", "nome": "José Araújo Roslindo Jr", "imagem": "http://res.cloudinary.com/dieqpmcoc/image/upload/v1516809317/20204_b459ee.jpg", "endereco": "Av. Irineu Bornhausen", "bairro": "São João", "lei": "4908/07", "equipamentos": "mesa de jogos, estares, área verde", "observacoes": null, "longitude": -48.674, "latitude": -26.8986 }, "geometry": { "type": "Point", "coordinates": [ -48.674, -26.8986 ] } },
{ "type": "Feature", "properties": { "cod": 17, "tipo": "Praça", "nome": "Antônio Lopes Gonzaga", "imagem": "http://res.cloudinary.com/dieqpmcoc/image/upload/v1516809309/20205_ftcyex.jpg", "endereco": "Rua Tijucas c/ Av. Cel. Eugênio Muller", "bairro": "Centro", "lei": "591/64", "equipamentos": "mesa de jogos, estares, área verde", "observacoes": null, "longitude": -48.6668, "latitude": -26.902 }, "geometry": { "type": "Point", "coordinates": [ -48.6668, -26.902 ] } },
{ "type": "Feature", "properties": { "cod": 18, "tipo": "Praça", "nome": "Bíblia", "imagem": "http://res.cloudinary.com/dieqpmcoc/image/upload/v1516809309/20206_ysvdrg.jpg", "endereco": "Rua Heitor Liberato c/  Rua Alberto Werner", "bairro": "Vila Operária", "lei": "1505/76", "equipamentos": "estares, área verde, elemento artístico", "observacoes": null, "longitude": -48.6692, "latitude": -26.9053 }, "geometry": { "type": "Point", "coordinates": [ -48.6692, -26.9053 ] } },
{ "type": "Feature", "properties": { "cod": 19, "tipo": "Praça", "nome": "Abelardo Corrêa", "imagem": "http://res.cloudinary.com/dieqpmcoc/image/upload/v1516809309/20207_vsghta.jpg", "endereco": "Rua Eugênio José Reichert c/ Rua Altino Werner", "bairro": "São João", "lei": "2200/85", "equipamentos": "academia, estares, área verde", "observacoes": null, "longitude": -48.6744, "latitude": -26.8955 }, "geometry": { "type": "Point", "coordinates": [ -48.6744, -26.8955 ] } },
{ "type": "Feature", "properties": { "cod": 20, "tipo": "Largo", "nome": "Mal. Olímpio Falconieri da Cunha", "imagem": "http://res.cloudinary.com/dieqpmcoc/image/upload/v1516809309/20208_iwhpv8.jpg", "endereco": "Av. Irineu Bornhausen c/ Rua Benjamim Franklim", "bairro": "São João", "lei": "1509/76", "equipamentos": null, "observacoes": null, "longitude": -48.6708, "latitude": -26.9025 }, "geometry": { "type": "Point", "coordinates": [ -48.6708, -26.9025 ] } },
{ "type": "Feature", "properties": { "cod": 21, "tipo": "Praça", "nome": "Alegria e Jardim Arno Bauer", "imagem": "http://res.cloudinary.com/dieqpmcoc/image/upload/v1516809309/20209_dqekxf.jpg", "endereco": "Rua Indaial c/ José Candido c/ Stringari  c/  Otto Praum", "bairro": "São João", "lei": "1092 e 1093/71", "equipamentos": null, "observacoes": null, "longitude": -48.6775, "latitude": -26.9007 }, "geometry": { "type": "Point", "coordinates": [ -48.6775, -26.9007 ] } },
{ "type": "Feature", "properties": { "cod": 22, "tipo": "Praça", "nome": "Genelício Pedro de Souza", "imagem": "http://res.cloudinary.com/dieqpmcoc/image/upload/v1516809310/20210_mlxgra.jpg", "endereco": "Rua Pedro Rangel c/ Rua Indaial", "bairro": "São João", "lei": "3799/02", "equipamentos": "academia, mesa de jogos, estares", "observacoes": null, "longitude": -48.6777, "latitude": -26.9011 }, "geometry": { "type": "Point", "coordinates": [ -48.6777, -26.9011 ] } },
{ "type": "Feature", "properties": { "cod": 23, "tipo": "Praça", "nome": "Olibio João Vieira", "imagem": "http://res.cloudinary.com/dieqpmcoc/image/upload/v1516809310/20301_pvdbv2.jpg", "endereco": "Av. Nereu Ramos", "bairro": "Murta", "lei": "5822/11", "equipamentos": "academia, estares, elemento artístico", "observacoes": "Em frente a Igreja da Murta", "longitude": -48.7077, "latitude": -26.8735 }, "geometry": { "type": "Point", "coordinates": [ -48.7077, -26.8735 ] } },
{ "type": "Feature", "properties": { "cod": 24, "tipo": "Praça", "nome": "Eng. José Erminio de Moraes", "imagem": "http://res.cloudinary.com/dieqpmcoc/image/upload/v1516809310/20302_b7xky4.jpg", "endereco": "Av. Castelo Branco,1135", "bairro": "Salseiros", "lei": "1410/75", "equipamentos": "área verde, elemento artístico", "observacoes": "Em frente a Fábrica de Cimento Votorantim", "longitude": -48.7141, "latitude": -26.8807 }, "geometry": { "type": "Point", "coordinates": [ -48.7141, -26.8807 ] } },
{ "type": "Feature", "properties": { "cod": 25, "tipo": "Área Verde", "nome": "Esperança - Área Verde", "imagem": "http://res.cloudinary.com/dieqpmcoc/image/upload/v1516809310/20303_xbxk3u.jpg", "endereco": "Av. Reinaldo Schmithausen", "bairro": "Cordeiros", "lei": null, "equipamentos": null, "observacoes": "Atual Banco Bradesco", "longitude": -48.7036, "latitude": -26.8879 }, "geometry": { "type": "Point", "coordinates": [ -48.7036, -26.8879 ] } },
{ "type": "Feature", "properties": { "cod": 26, "tipo": "Quadra", "nome": "João José da Silva - Quadra Poliesportiva", "imagem": "http://res.cloudinary.com/dieqpmcoc/image/upload/v1516809310/20304_c7xts1.jpg", "endereco": "Rua Eurípedes Amorim Leal, 600", "bairro": "Cordeiros", "lei": "5146/08", "equipamentos": "academia, playground, quadra poliesportiva, mesa de jogos, estares, área verde", "observacoes": null, "longitude": -48.6989, "latitude": -26.881 }, "geometry": { "type": "Point", "coordinates": [ -48.6989, -26.881 ] } },
{ "type": "Feature", "properties": { "cod": 27, "tipo": "Parque", "nome": "Gregório Cristino da Silva - Parque Esportivo", "imagem": "http://res.cloudinary.com/dieqpmcoc/image/upload/v1516809310/20305_x9spkx.jpg", "endereco": "Rua Eduvigens Theodoro da Cunha", "bairro": "Cordeiros", "lei": "5762/11", "equipamentos": "academia, skate, cancha bocha, playground, paraciclo, quadra poliesportiva, mesa de jogos, estares", "observacoes": "Anexo a Policlinica Jardim Esperanca", "longitude": -48.7013, "latitude": -26.8848 }, "geometry": { "type": "Point", "coordinates": [ -48.7013, -26.8848 ] } },
{ "type": "Feature", "properties": { "cod": 28, "tipo": "Praça", "nome": "Dr. Celso Pereira da Silva", "imagem": "http://res.cloudinary.com/dieqpmcoc/image/upload/v1516809311/20306_wir4uv.jpg", "endereco": "Vila da Fábrica de Cimento", "bairro": "Murta", "lei": "1471/76", "equipamentos": "playground, mesa de jogos, estares, área verde, elemento artístico", "observacoes": "Praça do Coreto", "longitude": -48.7089, "latitude": -26.8752 }, "geometry": { "type": "Point", "coordinates": [ -48.7089, -26.8752 ] } },
{ "type": "Feature", "properties": { "cod": 29, "tipo": "Praça", "nome": "Manoel Antônio Xavier", "imagem": "http://res.cloudinary.com/dieqpmcoc/image/upload/v1516809311/20402_b5y3mi.jpg", "endereco": "Rua Pedro José João c/ Rua São Benedito", "bairro": "Dom Bosco", "lei": "4093/04", "equipamentos": "estares", "observacoes": "Próxima a Capela Nossa Senhora das Graças", "longitude": -48.6692, "latitude": -26.9189 }, "geometry": { "type": "Point", "coordinates": [ -48.6692, -26.9189 ] } },
{ "type": "Feature", "properties": { "cod": 30, "tipo": "Praça", "nome": "Palmeiras", "imagem": "http://res.cloudinary.com/dieqpmcoc/image/upload/v1516809311/20403_hizysn.jpg", "endereco": "Rua José siqueira", "bairro": "Dom Bosco", "lei": "5006/93", "equipamentos": "área verde", "observacoes": "Em frente ao Fórum Trabalhista (Justiça do Trabalho)", "longitude": -48.6772, "latitude": -26.9226 }, "geometry": { "type": "Point", "coordinates": [ -48.6772, -26.9226 ] } },
{ "type": "Feature", "properties": { "cod": 31, "tipo": "Praça", "nome": "Expedicionário", "imagem": "http://res.cloudinary.com/dieqpmcoc/image/upload/v1516809312/20405_r3tahx.jpg", "endereco": "Rua Camboriú c/ Rua Lauro Müller", "bairro": "Fazenda", "lei": "342/60", "equipamentos": "estares, área verde, elemento artístico", "observacoes": "Praça do Relógio de Sol", "longitude": -48.6538, "latitude": -26.9167 }, "geometry": { "type": "Point", "coordinates": [ -48.6538, -26.9167 ] } },
{ "type": "Feature", "properties": { "cod": 32, "tipo": "Praça", "nome": "Morro da Cruz", "imagem": "http://res.cloudinary.com/dieqpmcoc/image/upload/v1516809312/20406_tjqlgp.jpg", "endereco": "Rua Antônio Manoel Vasconcelos Drumont (final)", "bairro": "Fazenda", "lei": null, "equipamentos": "estares, área verde, elemento artístico", "observacoes": "Morro da Cruz, em frente ao Castelinho", "longitude": -48.6633, "latitude": -26.9188 }, "geometry": { "type": "Point", "coordinates": [ -48.6633, -26.9188 ] } },
{ "type": "Feature", "properties": { "cod": 33, "tipo": "Praça", "nome": "Arno Mário Heusi", "imagem": "http://res.cloudinary.com/dieqpmcoc/image/upload/v1516809312/20407_iaexfr.jpg", "endereco": "Rua Julio Wlllerding c/ Rua José Marçal", "bairro": "Fazenda", "lei": "2419/88", "equipamentos": "playground, estares, área verde", "observacoes": null, "longitude": -48.6592, "latitude": -26.9141 }, "geometry": { "type": "Point", "coordinates": [ -48.6592, -26.9141 ] } },
{ "type": "Feature", "properties": { "cod": 34, "tipo": "Praça", "nome": "Ver. Dalmo Feminella", "imagem": "http://res.cloudinary.com/dieqpmcoc/image/upload/v1516809312/20408_d2afz0.jpg", "endereco": "Av Sete de Setembro c/ Rua Antônio Caetano", "bairro": "Fazenda", "lei": "2943/94", "equipamentos": "playground, mesa de jogos, estares", "observacoes": null, "longitude": -48.6543, "latitude": -26.9193 }, "geometry": { "type": "Point", "coordinates": [ -48.6543, -26.9193 ] } },
{ "type": "Feature", "properties": { "cod": 35, "tipo": "Praça", "nome": "Genésio de Miranda Lins", "imagem": "http://res.cloudinary.com/dieqpmcoc/image/upload/v1516809312/20409_zqk4jv.jpg", "endereco": "Av Min. Victor Konder c/ Rua 11 de Julho", "bairro": "Fazenda", "lei": "1649/78", "equipamentos": "cancha bocha, playground, quadra poliesportiva, mesa de jogos, estares, cancha areia, área verde, elemento artístico", "observacoes": null, "longitude": -48.6503, "latitude": -26.9194 }, "geometry": { "type": "Point", "coordinates": [ -48.6503, -26.9194 ] } },
{ "type": "Feature", "properties": { "cod": 36, "tipo": "Praça", "nome": "Caminhos de Sodegaura", "imagem": "http://res.cloudinary.com/dieqpmcoc/image/upload/v1516809312/20410_bjiyxc.jpg", "endereco": "Av. Min. Victor Konder", "bairro": "Fazenda", "lei": null, "equipamentos": "academia, skate, playground, paraciclo, calistenia, mesa de jogos, estares, área verde, elemento artístico", "observacoes": null, "longitude": -48.6504, "latitude": -26.9185 }, "geometry": { "type": "Point", "coordinates": [ -48.6504, -26.9185 ] } },
{ "type": "Feature", "properties": { "cod": 37, "tipo": "Praça", "nome": "Pedro Mendonça", "imagem": "http://res.cloudinary.com/dieqpmcoc/image/upload/v1516809312/20411_iaydvp.jpg", "endereco": "Av. Ver. Abraão João Francisco", "bairro": "Fazenda", "lei": "4851/92", "equipamentos": "playground, quadra poliesportiva, calistenia, mesa de jogos, estares", "observacoes": "Terminal da Fazenda", "longitude": -48.6553, "latitude": -26.9176 }, "geometry": { "type": "Point", "coordinates": [ -48.6553, -26.9176 ] } },
{ "type": "Feature", "properties": { "cod": 38, "tipo": "Praça", "nome": "Luiz Gonzaga Marquetti", "imagem": "http://res.cloudinary.com/dieqpmcoc/image/upload/v1516809312/20412_hmbetb.jpg", "endereco": "Av. Abrahão João Francisco", "bairro": "Fazenda", "lei": "5782/11", "equipamentos": null, "observacoes": "Em frente ao Terminal da Fazenda", "longitude": -48.6557, "latitude": -26.9161 }, "geometry": { "type": "Point", "coordinates": [ -48.6557, -26.9161 ] } },
{ "type": "Feature", "properties": { "cod": 39, "tipo": "Praça", "nome": "José Valim dos Santos", "imagem": "http://res.cloudinary.com/dieqpmcoc/image/upload/v1516809312/20413_ldx3l6.jpg", "endereco": "Rua Uruguai c/ Rua Aladi S. Bini", "bairro": "Fazenda", "lei": "4801/92", "equipamentos": "estares, elemento artístico", "observacoes": "Praça da Pipa", "longitude": -48.6567, "latitude": -26.9187 }, "geometry": { "type": "Point", "coordinates": [ -48.6567, -26.9187 ] } },
{ "type": "Feature", "properties": { "cod": 40, "tipo": "Praça", "nome": "José Silvano Côrrea Filho", "imagem": "http://res.cloudinary.com/dieqpmcoc/image/upload/v1516809313/20414_agd1np.jpg", "endereco": "Rua Soldado Abelardo Mendonça Sobrinho", "bairro": "Ressacada", "lei": "4677/06", "equipamentos": "playground, mesa de jogos, estares", "observacoes": "pedido matricula para confirmação do terreno e  regularizar matricula ", "longitude": -48.686, "latitude": -26.9338 }, "geometry": { "type": "Point", "coordinates": [ -48.686, -26.9338 ] } },
{ "type": "Feature", "properties": { "cod": 41, "tipo": "Praça", "nome": "República do Libano", "imagem": "http://res.cloudinary.com/dieqpmcoc/image/upload/v1516809313/20415_l5ghdc.jpg", "endereco": "Rua Elias Brick Adaime c/ Rua Prof. Ondino G. da Silva", "bairro": "Ressacada", "lei": "1572/77", "equipamentos": "playground, paraciclo, quadra poliesportiva, estares", "observacoes": null, "longitude": -48.6741, "latitude": -26.9333 }, "geometry": { "type": "Point", "coordinates": [ -48.6741, -26.9333 ] } },
{ "type": "Feature", "properties": { "cod": 42, "tipo": "Praça", "nome": "João dos Santos", "imagem": "http://res.cloudinary.com/dieqpmcoc/image/upload/v1516809313/20416_zgnox2.jpg", "endereco": "Esquina Sete de Setembro com Agostinho F. Vieira", "bairro": "Fazenda", "lei": "6194/12", "equipamentos": "estares", "observacoes": "Em frente a HAVAN", "longitude": -48.6532, "latitude": -26.9209 }, "geometry": { "type": "Point", "coordinates": [ -48.6532, -26.9209 ] } },
{ "type": "Feature", "properties": { "cod": 43, "tipo": "Praça", "nome": "Sem denominação oficial", "imagem": null, "endereco": "Rua Aristides Estevão da Silva", "bairro": "Ressacada", "lei": null, "equipamentos": "academia, playground, basquete, estares", "observacoes": "Em construção", "longitude": -48.6726, "latitude": -26.9293 }, "geometry": { "type": "Point", "coordinates": [ -48.6726, -26.9293 ] } },
{ "type": "Feature", "properties": { "cod": 44, "tipo": "Praça", "nome": "Jacques Demolay", "imagem": null, "endereco": "Rua José Siqueira", "bairro": "Ressacada", "lei": "6906/18", "equipamentos": "academia, playground, estares", "observacoes": "Em construção", "longitude": -48.675, "latitude": -26.9299 }, "geometry": { "type": "Point", "coordinates": [ -48.675, -26.9299 ] } },
{ "type": "Feature", "properties": { "cod": 45, "tipo": "Praça", "nome": "São Judas Tadeu", "imagem": "http://res.cloudinary.com/dieqpmcoc/image/upload/v1516809309/21101_ayf5cs.jpg", "endereco": "Rua Indaial c/ Rua Ceriaco Meirinho", "bairro": "São Judas", "lei": null, "equipamentos": "estares", "observacoes": "Em frente a Igreja do São Judas", "longitude": -48.677, "latitude": -26.9133 }, "geometry": { "type": "Point", "coordinates": [ -48.677, -26.9133 ] } },
{ "type": "Feature", "properties": { "cod": 46, "tipo": "Praça", "nome": "Prefeitos Paulo Bauer e Lito Seára", "imagem": "http://res.cloudinary.com/dieqpmcoc/image/upload/v1516809309/21102_x1ka2s.jpg", "endereco": "Rua João Gaya c/ Rua Fiúza Lima", "bairro": "São Judas", "lei": null, "equipamentos": "academia, estares, área verde", "observacoes": "Ao lado do Campo de Futebol Fiuza Lima", "longitude": -48.6741, "latitude": -26.9092 }, "geometry": { "type": "Point", "coordinates": [ -48.6741, -26.9092 ] } },
{ "type": "Feature", "properties": { "cod": 47, "tipo": "Praça", "nome": "Evandro do Nascimento", "imagem": "http://res.cloudinary.com/dieqpmcoc/image/upload/v1516809309/21103_mvmv48.jpg", "endereco": "Rua José Gall c/ Rua Jacob Ardigó e Rua Lico Amaral", "bairro": "Vila Operária", "lei": "4124/04", "equipamentos": "academia, estares, área verde", "observacoes": null, "longitude": -48.6729, "latitude": -26.9196 }, "geometry": { "type": "Point", "coordinates": [ -48.6729, -26.9196 ] } },
{ "type": "Feature", "properties": { "cod": 48, "tipo": "Praça", "nome": "1º de Maio", "imagem": "http://res.cloudinary.com/dieqpmcoc/image/upload/v1516809309/21104_o2lawz.jpg", "endereco": "Rua José Eugênio Muller c/ Rua Alfredo Trompowisky", "bairro": "Vila Operária", "lei": "150/53", "equipamentos": "estares, elemento artístico", "observacoes": null, "longitude": -48.6698, "latitude": -26.9076 }, "geometry": { "type": "Point", "coordinates": [ -48.6698, -26.9076 ] } },
{ "type": "Feature", "properties": { "cod": 49, "tipo": "Praça", "nome": "Maria Barbi Seara - Praça Esportiva", "imagem": "http://res.cloudinary.com/dieqpmcoc/image/upload/v1516809309/21105_yfbrrd.jpg", "endereco": "Rua José Eugênio Muller c/ Rua Alfredo Trompowisky", "bairro": "Vila Operária", "lei": "3585/00", "equipamentos": "academia, playground, quadra poliesportiva, mesa de jogos, estares", "observacoes": null, "longitude": -48.6701, "latitude": -26.9076 }, "geometry": { "type": "Point", "coordinates": [ -48.6701, -26.9076 ] } },
{ "type": "Feature", "properties": { "cod": 50, "tipo": "Praça", "nome": "Pe. Pedro Baron", "imagem": "http://res.cloudinary.com/dieqpmcoc/image/upload/v1516809309/21106_i6f20m.jpg", "endereco": "Rua José Eugênio Muller c/ Rua Brusque", "bairro": "Dom Bosco", "lei": "933/69", "equipamentos": "estares, área verde, elemento artístico", "observacoes": null, "longitude": -48.671, "latitude": -26.9174 }, "geometry": { "type": "Point", "coordinates": [ -48.671, -26.9174 ] } },
{ "type": "Feature", "properties": { "cod": 51, "tipo": "Praça", "nome": "São João Batista", "imagem": "http://res.cloudinary.com/dieqpmcoc/image/upload/v1516809310/21201_cno8tw.jpg", "endereco": "Rua Pedro Rangel", "bairro": "São João", "lei": null, "equipamentos": "estares, elemento artístico", "observacoes": "Em frente a Igreja do São João", "longitude": -48.6792, "latitude": -26.9005 }, "geometry": { "type": "Point", "coordinates": [ -48.6792, -26.9005 ] } },
{ "type": "Feature", "properties": { "cod": 52, "tipo": "Praça", "nome": "CELESC", "imagem": "http://res.cloudinary.com/dieqpmcoc/image/upload/v1516809311/21202_uhl3nx.jpg", "endereco": "Rua Blumenau", "bairro": "Barra do Rio", "lei": null, "equipamentos": "paraciclo, estares, área verde", "observacoes": "Em frente a CELESC", "longitude": -48.6752, "latitude": -26.8927 }, "geometry": { "type": "Point", "coordinates": [ -48.6752, -26.8927 ] } },
{ "type": "Feature", "properties": { "cod": 53, "tipo": "Praça", "nome": "N. Sra. Aparecida", "imagem": "http://res.cloudinary.com/dieqpmcoc/image/upload/v1516809311/21203_jghsxn.jpg", "endereco": "Rua David Adão Schmitt", "bairro": "Barra do Rio", "lei": null, "equipamentos": "academia, playground, estares", "observacoes": "Em frente a Igreja Cristo Rei", "longitude": -48.6835, "latitude": -26.8916 }, "geometry": { "type": "Point", "coordinates": [ -48.6835, -26.8916 ] } },
{ "type": "Feature", "properties": { "cod": 54, "tipo": "Praça", "nome": "Ver. João Ponciano", "imagem": "http://res.cloudinary.com/dieqpmcoc/image/upload/v1516809311/21204_bgcyfi.jpg", "endereco": "Alfredo Eick / Kurt Hering / José Pereira Liberato e Exp. Aleixo Maba", "bairro": "Barra do Rio", "lei": "434/62", "equipamentos": "estares, área verde", "observacoes": null, "longitude": -48.6818, "latitude": -26.8909 }, "geometry": { "type": "Point", "coordinates": [ -48.6818, -26.8909 ] } },
{ "type": "Feature", "properties": { "cod": 55, "tipo": "Praça", "nome": "Anna Vigarini Peixer", "imagem": "http://res.cloudinary.com/dieqpmcoc/image/upload/v1516809311/21206_olsuvn.jpg", "endereco": "Rua Blumenau, 2.085", "bairro": "Barra do Rio", "lei": "6797/17", "equipamentos": "academia, playground, paraciclo, mesa de jogos, estares", "observacoes": null, "longitude": -48.6791, "latitude": -26.8884 }, "geometry": { "type": "Point", "coordinates": [ -48.6791, -26.8884 ] } },
{ "type": "Feature", "properties": { "cod": 56, "tipo": "Parque", "nome": "Alessandro Weiss - Parque Ecológico", "imagem": "http://res.cloudinary.com/dieqpmcoc/image/upload/v1516809313/21207_dmcmvy.jpg", "endereco": "Rua Pedro Rangel", "bairro": "São João", "lei": "3465/99", "equipamentos": "academia, playground, paraciclo, quadra poliesportiva, mesa de jogos, estares, área verde", "observacoes": null, "longitude": -48.6852, "latitude": -26.901 }, "geometry": { "type": "Point", "coordinates": [ -48.6852, -26.901 ] } },
{ "type": "Feature", "properties": { "cod": 57, "tipo": "Jardim", "nome": "Amizade", "imagem": "http://res.cloudinary.com/dieqpmcoc/image/upload/v1516809312/21208_jjblfv.jpg", "endereco": "Av. Irineu Bornhausen c/ Rua Alfredo Eicke", "bairro": "Barra do Rio", "lei": "1653/78", "equipamentos": null, "observacoes": null, "longitude": -48.6794, "latitude": -26.8917 }, "geometry": { "type": "Point", "coordinates": [ -48.6794, -26.8917 ] } },
{ "type": "Feature", "properties": { "cod": 59, "tipo": "Marco", "nome": "Porta do Vale - Marco Rotário", "imagem": "http://res.cloudinary.com/dieqpmcoc/image/upload/v1516809312/21401_mz9yog.jpg", "endereco": "Rod. Osvaldo Reis", "bairro": "Fazenda", "lei": null, "equipamentos": "área verde, elemento artístico", "observacoes": "Morro Cortado", "longitude": -48.6412, "latitude": -26.9376 }, "geometry": { "type": "Point", "coordinates": [ -48.6412, -26.9376 ] } },
{ "type": "Feature", "properties": { "cod": 60, "tipo": "Praça", "nome": "Walter Konder Fleishmann", "imagem": "http://res.cloudinary.com/dieqpmcoc/image/upload/v1516809313/21402_pkvbbm.jpg", "endereco": "Rua Dep. Francisco Eduardo Canziani", "bairro": "Cabeçudas", "lei": "2723/92", "equipamentos": "estares, área verde, elemento artístico", "observacoes": "Possui Gruta com Oratorio", "longitude": -48.6466, "latitude": -26.9189 }, "geometry": { "type": "Point", "coordinates": [ -48.6466, -26.9189 ] } },
{ "type": "Feature", "properties": { "cod": 61, "tipo": "Jardim", "nome": "Marcos Gustavo Heusi", "imagem": "http://res.cloudinary.com/dieqpmcoc/image/upload/v1516809313/21403_ieojoj.jpg", "endereco": "Rua Juvêncio Tavares D' Amaral", "bairro": "Cabeçudas", "lei": "95/53", "equipamentos": "playground, estares, área verde", "observacoes": "Hotel Marambaia", "longitude": -48.6309, "latitude": -26.9296 }, "geometry": { "type": "Point", "coordinates": [ -48.6309, -26.9296 ] } },
{ "type": "Feature", "properties": { "cod": 62, "tipo": "Praça", "nome": "Aldo Mário de Almeida", "imagem": "http://res.cloudinary.com/dieqpmcoc/image/upload/v1516809313/21404_bmgtdc.jpg", "endereco": "Rua Dep. Francisco Eduardo Canziani", "bairro": "Cabeçudas", "lei": "2680/91", "equipamentos": "área verde, elemento artístico", "observacoes": "Bico do Papagaio", "longitude": -48.64, "latitude": -26.9208 }, "geometry": { "type": "Point", "coordinates": [ -48.64, -26.9208 ] } },
{ "type": "Feature", "properties": { "cod": 63, "tipo": "Praça", "nome": "Atleta", "imagem": "http://res.cloudinary.com/dieqpmcoc/image/upload/v1516809313/21405_xsv9oa.jpg", "endereco": "Rod. Osvaldo Reis", "bairro": "Fazenda", "lei": "1094/71", "equipamentos": "academia, skate, cancha bocha, playground, quadra poliesportiva, mesa de jogos, estares, elemento artístico", "observacoes": "Anexo ao Ginásio Ivo Silveira", "longitude": -48.6454, "latitude": -26.9292 }, "geometry": { "type": "Point", "coordinates": [ -48.6454, -26.9292 ] } },
{ "type": "Feature", "properties": { "cod": 64, "tipo": "Praça", "nome": "Três Rosas", "imagem": "http://res.cloudinary.com/dieqpmcoc/image/upload/v1516809313/21406_ji5kqr.jpg", "endereco": "Rua Antônio Bonanoni c/ Rua Antônio R. de Andrade", "bairro": "Fazenda", "lei": "2591/90", "equipamentos": "estares, área verde, elemento artístico", "observacoes": null, "longitude": -48.6478, "latitude": -26.9219 }, "geometry": { "type": "Point", "coordinates": [ -48.6478, -26.9219 ] } },
{ "type": "Feature", "properties": { "cod": 66, "tipo": "Bica", "nome": "N. Sra. Rosa Mística", "imagem": "http://res.cloudinary.com/dieqpmcoc/image/upload/v1516809313/21408_rhqmhx.jpg", "endereco": "Rua José Menescal do Monte", "bairro": "Cabeçudas", "lei": null, "equipamentos": "estares, área verde, elemento artístico", "observacoes": "Bica", "longitude": -48.6367, "latitude": -26.927 }, "geometry": { "type": "Point", "coordinates": [ -48.6367, -26.927 ] } },
{ "type": "Feature", "properties": { "cod": 67, "tipo": "Jardim", "nome": "José Zwolfer", "imagem": "http://res.cloudinary.com/dieqpmcoc/image/upload/v1516809313/21409_ztzyxl.jpg", "endereco": "Rua Juvêncio Tavares do Amaral c/ Rua Floriano Peixoto", "bairro": "Cabeçudas", "lei": "1687/79", "equipamentos": null, "observacoes": null, "longitude": -48.6352, "latitude": -26.9245 }, "geometry": { "type": "Point", "coordinates": [ -48.6352, -26.9245 ] } },
{ "type": "Feature", "properties": { "cod": 68, "tipo": "Praça", "nome": "Juvenal Correia", "imagem": "http://res.cloudinary.com/dieqpmcoc/image/upload/v1516809313/21410_ctl5og.jpg", "endereco": "Rua Bráulio Werner", "bairro": "Praia Brava", "lei": "5170/08", "equipamentos": "academia, skate, playground, paraciclo, mesa de jogos, estares, área verde", "observacoes": null, "longitude": -48.6419, "latitude": -26.9485 }, "geometry": { "type": "Point", "coordinates": [ -48.6419, -26.9485 ] } },
{ "type": "Feature", "properties": { "cod": 69, "tipo": "Praça", "nome": "Dorval Ladislau Amaral", "imagem": "http://res.cloudinary.com/dieqpmcoc/image/upload/v1516809314/21502_z9zi9w.jpg", "endereco": "Av. Radial Oeste", "bairro": "Salseiros", "lei": "5163/08", "equipamentos": "estares, elemento artístico", "observacoes": "Em frente a Igreja dos Salseiros", "longitude": -48.731, "latitude": -26.8695 }, "geometry": { "type": "Point", "coordinates": [ -48.731, -26.8695 ] } },
{ "type": "Feature", "properties": { "cod": 70, "tipo": "Trevo", "nome": "Mercosul", "imagem": "http://res.cloudinary.com/dieqpmcoc/image/upload/v1516809314/21503_d50guo.jpg", "endereco": "Rod. BR 101 c/ Rod. Jorge Lacerda", "bairro": "Salseiros", "lei": "2963/95", "equipamentos": null, "observacoes": "Trevo da Av. Dr. Reinaldo Schimitausen", "longitude": -48.7215, "latitude": -26.8902 }, "geometry": { "type": "Point", "coordinates": [ -48.7215, -26.8902 ] } },
{ "type": "Feature", "properties": { "cod": 71, "tipo": "Praça", "nome": "Praça de esportes, Volta de Cima", "imagem": null, "endereco": "Rua Ver. Pedro João de Souza Filho", "bairro": "Volta de Cima", "lei": null, "equipamentos": null, "observacoes": "Projeto aprovado", "longitude": -48.74645, "latitude": -26.87864 }, "geometry": { "type": "Point", "coordinates": [ -48.7465, -26.8786 ] } },
{ "type": "Feature", "properties": { "cod": 72, "tipo": "Complexo", "nome": "Aleixo Rogge - Complexo Museal", "imagem": "http://res.cloudinary.com/dieqpmcoc/image/upload/v1516809314/21601_arvewl.jpg", "endereco": "Av. Itaipava, 3.901", "bairro": "Itaipava", "lei": "5135/08", "equipamentos": "academia, playground, estares", "observacoes": "Anexo ao Museu Etno Arqueologico", "longitude": -48.7394, "latitude": -26.9454 }, "geometry": { "type": "Point", "coordinates": [ -48.7394, -26.9454 ] } },
{ "type": "Feature", "properties": { "cod": 73, "tipo": "Praça", "nome": "Artur Winter", "imagem": "http://res.cloudinary.com/dieqpmcoc/image/upload/v1516809314/21602_mtgufa.jpg", "endereco": "Av. Itaipava", "bairro": "Itaipava", "lei": "3632/01", "equipamentos": "estares", "observacoes": "Em frente a Igreja do São Pedro", "longitude": -48.722, "latitude": -26.9418 }, "geometry": { "type": "Point", "coordinates": [ -48.722, -26.9418 ] } },
{ "type": "Feature", "properties": { "cod": 74, "tipo": "Área Verde", "nome": "São Pedro - Área Verde", "imagem": null, "endereco": "Estrada Geral do Rio do Meio c/ R. Chrispim Evaristo", "bairro": "Rio do Meio", "lei": null, "equipamentos": "academia", "observacoes": null, "longitude": -48.7119, "latitude": -26.9451 }, "geometry": { "type": "Point", "coordinates": [ -48.7119, -26.9451 ] } },
{ "type": "Feature", "properties": { "cod": 75, "tipo": "Parque", "nome": "Parque Municipal do Agricultor Gilmar Graf", "imagem": null, "endereco": "Rua Mansueto Felizardo Vieira, 557", "bairro": "(Baia)", "lei": null, "equipamentos": null, "observacoes": null, "longitude": -48.7468, "latitude": -26.968 }, "geometry": { "type": "Point", "coordinates": [ -48.7468, -26.968 ] } },
{ "type": "Feature", "properties": { "cod": 76, "tipo": "Praça", "nome": "Eduardo Fritz Dietrich", "imagem": "http://res.cloudinary.com/dieqpmcoc/image/upload/v1516809314/22101_uqef2f.jpg", "endereco": "Rua Heitor Liberato c/ Rua Carolina Vailatti", "bairro": "São João", "lei": "2567/90", "equipamentos": "estares, área verde", "observacoes": null, "longitude": -48.6822, "latitude": -26.9099 }, "geometry": { "type": "Point", "coordinates": [ -48.6822, -26.9099 ] } },
{ "type": "Feature", "properties": { "cod": 77, "tipo": "Praça", "nome": "Arno Cugnier", "imagem": "http://res.cloudinary.com/dieqpmcoc/image/upload/v1516809314/22102_oi3utl.jpg", "endereco": "Rua José Gall c/ Rua Antônio José de Souza Cunha", "bairro": "Dom Bosco", "lei": "3691/02", "equipamentos": "estares, área verde", "observacoes": null, "longitude": -48.6827, "latitude": -26.9247 }, "geometry": { "type": "Point", "coordinates": [ -48.6827, -26.9247 ] } },
{ "type": "Feature", "properties": { "cod": 78, "tipo": "Parque", "nome": "Parque Náutico - Odílio Garcia", "imagem": "http://res.cloudinary.com/dieqpmcoc/image/upload/v1516809314/301_b2hawq.jpg", "endereco": "Av. Dr. Reinaldo Schmithausen", "bairro": "Cordeiros", "lei": "3472/99", "equipamentos": "academia, calistenia, mesa de jogos, estares, área verde, elemento artístico", "observacoes": "Beira do Rio Itajaí-Açu", "longitude": -48.6876, "latitude": -26.8878 }, "geometry": { "type": "Point", "coordinates": [ -48.6876, -26.8878 ] } },
{ "type": "Feature", "properties": { "cod": 79, "tipo": "Praça", "nome": "Exp. Pedro Manoel Rescaroli", "imagem": "http://res.cloudinary.com/dieqpmcoc/image/upload/v1516809314/302_xysnbk.jpg", "endereco": "Rua Mário Reis", "bairro": "Cordeiros", "lei": "1905/81", "equipamentos": "academia, playground, mesa de jogos, basquete, estares, cancha areia, área verde", "observacoes": null, "longitude": -48.6953, "latitude": -26.8901 }, "geometry": { "type": "Point", "coordinates": [ -48.6953, -26.8901 ] } },
{ "type": "Feature", "properties": { "cod": 80, "tipo": "Praça", "nome": "Analia Emilio Joanini", "imagem": "http://res.cloudinary.com/dieqpmcoc/image/upload/v1516809314/303_cist3m.jpg", "endereco": "Rua Osvaldo Cruz c/ Rua Gustavo Bernedt", "bairro": "Cordeiros", "lei": "6142/12", "equipamentos": "academia, estares, área verde", "observacoes": "Possui três áreas", "longitude": -48.7006, "latitude": -26.8934 }, "geometry": { "type": "Point", "coordinates": [ -48.7006, -26.8934 ] } },
{ "type": "Feature", "properties": { "cod": 81, "tipo": "Praça", "nome": "São Cristóvão", "imagem": "http://res.cloudinary.com/dieqpmcoc/image/upload/v1516809315/304_pc5hgl.jpg", "endereco": "Rua Odílio garcia c/ Rua José Luciano Pereira", "bairro": "Cordeiros", "lei": null, "equipamentos": "estares", "observacoes": "Praça da Igreja São Cristóvão", "longitude": -48.6937, "latitude": -26.8876 }, "geometry": { "type": "Point", "coordinates": [ -48.6937, -26.8876 ] } },
{ "type": "Feature", "properties": { "cod": 82, "tipo": "Praça", "nome": "Alberto Santos Dumont", "imagem": "http://res.cloudinary.com/dieqpmcoc/image/upload/v1516809314/305_ss0e62.jpg", "endereco": "Av. Independência c/ Rua Espirito Santo", "bairro": "Cordeiros", "lei": "1288/73", "equipamentos": "academia, playground, paraciclo, quadra poliesportiva, mesa de jogos, estares", "observacoes": "1ª Praça do Bairro Costa Cavalcanti", "longitude": -48.6977, "latitude": -26.8904 }, "geometry": { "type": "Point", "coordinates": [ -48.6977, -26.8904 ] } },
{ "type": "Feature", "properties": { "cod": 83, "tipo": "Praça", "nome": "Mal. Cândido Mariano Rondon", "imagem": "http://res.cloudinary.com/dieqpmcoc/image/upload/v1516809314/306_djxusc.jpg", "endereco": "Av. Guanabara, 450", "bairro": "Cordeiros", "lei": "1288/73", "equipamentos": "playground, mesa de jogos, estares, área verde 03", "observacoes": "2ª Praça do Bairro Costa Cavalcanti", "longitude": -48.6977, "latitude": -26.8944 }, "geometry": { "type": "Point", "coordinates": [ -48.6977, -26.8944 ] } },
{ "type": "Feature", "properties": { "cod": 84, "tipo": "Praça", "nome": "Arthur Ramos", "imagem": "http://res.cloudinary.com/dieqpmcoc/image/upload/v1516809315/307_wr39bb.jpg", "endereco": "Av. Brasilia c/ Rua Agostinho Alves Ramos", "bairro": "Cordeiros", "lei": "6.972/18", "equipamentos": "área verde", "observacoes": "Praça da Seringueira", "longitude": -48.6983, "latitude": -26.8988 }, "geometry": { "type": "Point", "coordinates": [ -48.6983, -26.8988 ] } },
{ "type": "Feature", "properties": { "cod": 85, "tipo": "Praça", "nome": "Manoel Bernardino Vicente", "imagem": "http://res.cloudinary.com/dieqpmcoc/image/upload/v1516809315/401_rvpvbb.jpg", "endereco": "Rua Alice dos Santos Bittencourt", "bairro": "São Vicente", "lei": null, "equipamentos": "academia, playground, paraciclo, quadra poliesportiva, mesa de jogos, quadra de tênis, bicicross, estares", "observacoes": null, "longitude": -48.7072, "latitude": -26.9111 }, "geometry": { "type": "Point", "coordinates": [ -48.7072, -26.9111 ] } },
{ "type": "Feature", "properties": { "cod": 86, "tipo": "Praça", "nome": "Dona Flôr", "imagem": "http://res.cloudinary.com/dieqpmcoc/image/upload/v1516809315/402_j8wzch.jpg", "endereco": "Rua Otávio Cesário Pereira, Antônio Aires dos Santos / Gov Adolfo Konder", "bairro": "São Vicente", "lei": "7127/04", "equipamentos": "academia, skate, playground, quadra poliesportiva, estares", "observacoes": "Ao lado do Supermercado Maxxi", "longitude": -48.6924, "latitude": -26.9126 }, "geometry": { "type": "Point", "coordinates": [ -48.6924, -26.9126 ] } },
{ "type": "Feature", "properties": { "cod": 87, "tipo": "Praça", "nome": "Tancredo Neves", "imagem": null, "endereco": "Rua Rui Vieira c/ Rua Ver. Airton de Souza", "bairro": "São Vicente", "lei": null, "equipamentos": "estares, área verde, elemento artístico", "observacoes": "Em frente a Ponte Tancredo Neves", "longitude": -48.6938, "latitude": -26.8972 }, "geometry": { "type": "Point", "coordinates": [ -48.6938, -26.8972 ] } },
{ "type": "Feature", "properties": { "cod": 88, "tipo": "Praça", "nome": "Maria Gueda Vicente", "imagem": "http://res.cloudinary.com/dieqpmcoc/image/upload/v1516809315/404_vihns9.jpg", "endereco": "Rua Caçador c/ Rua Osvaldo Becker", "bairro": "São Vicente", "lei": "7135/04", "equipamentos": "estares", "observacoes": null, "longitude": -48.6859, "latitude": -26.8957 }, "geometry": { "type": "Point", "coordinates": [ -48.6859, -26.8957 ] } },
{ "type": "Feature", "properties": { "cod": 89, "tipo": "Praça", "nome": "Ver. José Rodrigues de Araújo", "imagem": "http://res.cloudinary.com/dieqpmcoc/image/upload/v1516809315/405_kwpl11.jpg", "endereco": "Rua Luiz Roberto Casas", "bairro": "São Vicente", "lei": "5112/08", "equipamentos": "academia, playground, mesa de jogos, estares, campo de futebol", "observacoes": null, "longitude": -48.6847, "latitude": -26.8974 }, "geometry": { "type": "Point", "coordinates": [ -48.6847, -26.8974 ] } },
{ "type": "Feature", "properties": { "cod": 90, "tipo": "Praça", "nome": "Alex Sandro Pinheiro", "imagem": null, "endereco": "Ruas Otávio Cesário Pereira, Gaspar da Costa Moraes e Manoel Francisco Coelho", "bairro": "São Vicente", "lei": "6724/16", "equipamentos": "academia, playground, basquete, estares", "observacoes": null, "longitude": -48.6905, "latitude": -26.902 }, "geometry": { "type": "Point", "coordinates": [ -48.6905, -26.902 ] } },
{ "type": "Feature", "properties": { "cod": 91, "tipo": "Praça", "nome": "Rafael Rodrigues Mendonça", "imagem": null, "endereco": "Av. Campos Novos", "bairro": "São Vicente", "lei": "6575/14", "equipamentos": "academia, playground, estares", "observacoes": "Próximo a Ponte Gov. Vilson Pedro Kleinübing", "longitude": -48.7003, "latitude": -26.9011 }, "geometry": { "type": "Point", "coordinates": [ -48.7003, -26.9011 ] } },
{ "type": "Feature", "properties": { "cod": 92, "tipo": "Praça", "nome": "PEC - Praça dos Esportes e da Cultura", "imagem": "http://res.cloudinary.com/dieqpmcoc/image/upload/v1516809315/408_v8iisu.jpg", "endereco": "Rua Érico Veríssimo, 701", "bairro": "São Vicente", "lei": "Decreto 9999/13", "equipamentos": "academia, skate, playground, paraciclo, quadra poliesportiva, mesa de jogos, estares", "observacoes": "Em Rua Projetada", "longitude": -48.6968, "latitude": -26.9124 }, "geometry": { "type": "Point", "coordinates": [ -48.6968, -26.9124 ] } },
{ "type": "Feature", "properties": { "cod": 94, "tipo": "Praça", "nome": "Pedro Lima", "imagem": "http://res.cloudinary.com/dieqpmcoc/image/upload/v1516809315/501_vakpgy.jpg", "endereco": "Av. Min. Luiz Galotti", "bairro": "Cidade Nova", "lei": "4937/07", "equipamentos": "academia, cancha bocha, playground, quadra poliesportiva, mesa de jogos, estares, cancha areia, campo de futebol", "observacoes": "Proxima ao E B XV de Junho (http://patrimonio.itajai.local/arquivos/35361-2.pdf )", "longitude": -48.6934, "latitude": -26.9299 }, "geometry": { "type": "Point", "coordinates": [ -48.6934, -26.9299 ] } },
{ "type": "Feature", "properties": { "cod": 95, "tipo": "Praça", "nome": "Irene Testoni Sandri", "imagem": "http://res.cloudinary.com/dieqpmcoc/image/upload/v1516809316/502_b5mtdw.jpg", "endereco": "Rua José domingos Machado c/ Rua Nelson Manoel Simão", "bairro": "Cidade Nova", "lei": "3518/00", "equipamentos": "playground, estares", "observacoes": "Ao lado do CEI Joao Sandri", "longitude": -48.6904, "latitude": -26.9258 }, "geometry": { "type": "Point", "coordinates": [ -48.6904, -26.9258 ] } },
{ "type": "Feature", "properties": { "cod": 96, "tipo": "Praça", "nome": "Maria de Jesus", "imagem": "http://res.cloudinary.com/dieqpmcoc/image/upload/v1516809316/503_ruvacn.jpg", "endereco": "Rua Otto Hoier, 1375", "bairro": "Cidade Nova", "lei": "5137/08", "equipamentos": "academia, skate, cancha bocha, playground, quadra poliesportiva, mesa de jogos, estares", "observacoes": "Associação de Moradores do Promorar I", "longitude": -48.69, "latitude": -26.9204 }, "geometry": { "type": "Point", "coordinates": [ -48.69, -26.9204 ] } },
{ "type": "Feature", "properties": { "cod": 97, "tipo": "Praça", "nome": "Oswaldo Pedro de Miranda", "imagem": "http://res.cloudinary.com/dieqpmcoc/image/upload/v1516809316/504_lmshjz.jpg", "endereco": "Ruas Agílio Cunha, Manoel Cardoso e a Av. Vereador Nilo Simas", "bairro": "Cidade Nova", "lei": "5315/09", "equipamentos": "área verde", "observacoes": null, "longitude": -48.6949, "latitude": -26.9263 }, "geometry": { "type": "Point", "coordinates": [ -48.6949, -26.9263 ] } },
{ "type": "Feature", "properties": { "cod": 98, "tipo": "Praça", "nome": "Alarico de Souza Neves", "imagem": "http://res.cloudinary.com/dieqpmcoc/image/upload/v1516809316/505_ommwcm.jpg", "endereco": "Rua Agílio Cunha c/ Rua Palmir Francisco Dias", "bairro": "Cidade Nova", "lei": "3969/03", "equipamentos": "academia, playground, quadra poliesportiva, mesa de jogos, estares", "observacoes": "Anexo a E B Pedro Rizzi", "longitude": -48.6944, "latitude": -26.9232 }, "geometry": { "type": "Point", "coordinates": [ -48.6944, -26.9232 ] } },
{ "type": "Feature", "properties": { "cod": 99, "tipo": "Praça", "nome": "Ver. Antônio Afonso do Amaral", "imagem": "http://res.cloudinary.com/dieqpmcoc/image/upload/v1516809316/507_vmbomd.jpg", "endereco": "Rua Avenida Vereador nilo simas", "bairro": "Cidade Nova", "lei": "3424/99", "equipamentos": "playground, estares, área verde", "observacoes": null, "longitude": -48.6958, "latitude": -26.9277 }, "geometry": { "type": "Point", "coordinates": [ -48.6958, -26.9277 ] } },
{ "type": "Feature", "properties": { "cod": 100, "tipo": "Praça", "nome": "Sem denominação ofícial", "imagem": null, "endereco": "Rua Maria Corrêa", "bairro": "Cidade Nova", "lei": null, "equipamentos": "playground, mesa de jogos, estares", "observacoes": "Em frente a Escola Municipal", "longitude": -48.7046, "latitude": -26.9221 }, "geometry": { "type": "Point", "coordinates": [ -48.7046, -26.9221 ] } },
{ "type": "Feature", "properties": { "cod": 101, "tipo": "Praça", "nome": "Cidade Nova", "imagem": null, "endereco": "Av. Maria Marques Werner", "bairro": "Cidade Nova", "lei": null, "equipamentos": "academia, playground, estares, cancha areia", "observacoes": "Em construção", "longitude": -48.7014, "latitude": -26.929 }, "geometry": { "type": "Point", "coordinates": [ -48.7014, -26.929 ] } },
{ "type": "Feature", "properties": { "cod": 102, "tipo": "Praça", "nome": "José Arthur Colzani ", "imagem": null, "endereco": "Rua Fermino Vieira Cordeiro,1200", "bairro": "Espinheiros", "lei": "6908/18", "equipamentos": null, "observacoes": "aguardando resposta do EDER urbanismo", "longitude": -48.7311, "latitude": -26.8959 }, "geometry": { "type": "Point", "coordinates": [ -48.7311, -26.8959 ] } },
{ "type": "Feature", "properties": { "cod": 103, "tipo": "Praça", "nome": "Murta", "imagem": null, "endereco": "Rua Eugenio Pezzini ", "bairro": "Murta", "lei": null, "equipamentos": null, "observacoes": null, "longitude": -48.6913, "latitude": -26.8692 }, "geometry": { "type": "Point", "coordinates": [ -48.6913, -26.8692 ] } },
{ "type": "Feature", "properties": { "cod": 114, "tipo": "Praça", "nome": "Murta", "imagem": null, "endereco": "R.Domingos Braz Sedrez", "bairro": "Murta", "lei": null, "equipamentos": null, "observacoes": null, "longitude": -48.697, "latitude": -26.8717 }, "geometry": { "type": "Point", "coordinates": [ -48.697, -26.8717 ] } },
{ "type": "Feature", "properties": { "cod": 104, "tipo": "Praça", "nome": "Amizade", "imagem": "http://res.cloudinary.com/dieqpmcoc/image/upload/v1516809311/21205_mavz42.jpg", "endereco": "Rua Leodegário Pedro da Silva", "bairro": "Barra do Rio", "lei": null, "equipamentos": "academia, skate, playground, paraciclo, mesa de jogos, estares", "observacoes": "Ao Lado da Secretaria da Saúde", "longitude": -48.6741, "latitude": -26.8912 }, "geometry": { "type": "Point", "coordinates": [ -48.6741, -26.8912 ] } },
{ "type": "Feature", "properties": { "cod": 105, "tipo": "Largo", "nome": "Luiz Dorval Da Silva", "imagem": null, "endereco": "Rua Domingos José Cabral c/ Av. Abrahão João Francisco ", "bairro": "Fazenda", "lei": "4552/06", "equipamentos": "mesas de jogos", "observacoes": null, "longitude": -48.6574, "latitude": -26.9141 }, "geometry": { "type": "Point", "coordinates": [ -48.6574, -26.9141 ] } },
{ "type": "Feature", "properties": { "cod": 106, "tipo": "Praça", "nome": "Sem denominação ofícial", "imagem": null, "endereco": "Rua Genésio João Teixeira, s/n", "bairro": "Cabeçudas", "lei": null, "equipamentos": null, "observacoes": null, "longitude": -48.637, "latitude": -26.9278 }, "geometry": { "type": "Point", "coordinates": [ -48.637, -26.9278 ] } },
{ "type": "Feature", "properties": { "cod": 107, "tipo": "Praça", "nome": "Sem denominação oficial", "imagem": null, "endereco": "Rua Oswaldo Leal, 1.300", "bairro": "Espinheiros ", "lei": null, "equipamentos": "Academia, playground", "observacoes": null, "longitude": -48.7337, "latitude": -26.8758 }, "geometry": { "type": "Point", "coordinates": [ -48.7337, -26.8758 ] } },
{ "type": "Feature", "properties": { "cod": 108, "tipo": "Praça", "nome": "Sem denominação oficial", "imagem": null, "endereco": "Rua Orlando Wippel, 240", "bairro": "São Vicente", "lei": null, "equipamentos": "academia, playground", "observacoes": null, "longitude": -48.6881, "latitude": -26.9099 }, "geometry": { "type": "Point", "coordinates": [ -48.6881, -26.9099 ] } },
{ "type": "Feature", "properties": { "cod": 109, "tipo": "Praça", "nome": "Sem denominação oficial", "imagem": null, "endereco": "Av. Maria Marques Werner, 1.408", "bairro": "Cidade Nova", "lei": null, "equipamentos": null, "observacoes": null, "longitude": -48.6998, "latitude": -26.9305 }, "geometry": { "type": "Point", "coordinates": [ -48.6998, -26.9305 ] } },
{ "type": "Feature", "properties": { "cod": 110, "tipo": "Praça", "nome": "Sem denominação oficial", "imagem": null, "endereco": "Rua Osvaldo Reis, 1.487", "bairro": "Fazendinha", "lei": null, "equipamentos": null, "observacoes": "Área destinada para praça do Lot. Augusto Pedro Schoenau", "longitude": -48.6417, "latitude": -26.9358 }, "geometry": { "type": "Point", "coordinates": [ -48.6417, -26.9358 ] } },
{ "type": "Feature", "properties": { "cod": 111, "tipo": "Praça", "nome": "Sem denominação oficial", "imagem": null, "endereco": "Rua João Bauer Júnior, 490", "bairro": "Cabeçudas", "lei": null, "equipamentos": null, "observacoes": null, "longitude": -48.6383, "latitude": -26.9293 }, "geometry": { "type": "Point", "coordinates": [ -48.6383, -26.9293 ] } },
{ "type": "Feature", "properties": { "cod": 112, "tipo": "Praça", "nome": "Sem denominação oficial", "imagem": null, "endereco": "Rua Aldo Silva, 405", "bairro": "Cidade Nova", "lei": null, "equipamentos": "academia, playground", "observacoes": "Área não desmembrada", "longitude": -48.6982, "latitude": -26.9193 }, "geometry": { "type": "Point", "coordinates": [ -48.6982, -26.9193 ] } },
{ "type": "Feature", "properties": { "cod": 113, "tipo": "Praça", "nome": "Sem denominação oficial", "imagem": null, "endereco": null, "bairro": null, "lei": null, "equipamentos": null, "observacoes": "Possivel matrícula no nome da MITRA - antiga ferrovia", "longitude": -48.663, "latitude": -26.9142 }, "geometry": { "type": "Point", "coordinates": [ -48.663, -26.9142 ] } }
]
}
